,City,Cloudiness,Country,Date,Humidity,Lat,Lng,Max Temp,Wind Speed
0,Qaanaaq,100,GL,1575143426,93,77.48,-69.36,9.84,9.35
2,Burnie,100,AU,1575143426,79,-41.05,145.91,48.99,1.99
3,Castro,75,CL,1575143426,76,-42.48,-73.76,55.4,6.93
4,Busselton,0,AU,1575143173,45,-33.64,115.35,55,12.46
5,Daru,97,PG,1575143426,87,-9.07,143.21,78.33,4.36
6,Albany,40,US,1575143238,47,42.65,-73.75,35.01,4.7
7,Jamestown,100,AU,1575143426,83,-33.21,138.6,47.71,13.09
8,Yellowknife,75,CA,1575143426,85,62.45,-114.38,21.2,8.05
10,Noumea,42,NC,1575143427,72,-22.28,166.46,75.99,1.12
11,Grand Gaube,40,MU,1575143427,73,-20.01,57.66,77,11.41
12,Gerash,0,IR,1575143387,76,27.67,54.14,51.8,4.54
13,Bethel,1,US,1575143427,92,60.79,-161.76,19.4,9.17
14,Pisco,0,PE,1575143363,30,-13.71,-76.2,72,10.29
15,Kavieng,34,PG,1575143427,65,-2.57,150.8,83.93,4.23
16,Cape Town,40,ZA,1575143226,72,-33.93,18.42,64.99,13.87
17,Punta Arenas,20,CL,1575143427,41,-53.16,-70.91,57.2,28.86
18,Iqaluit,75,CA,1575143427,68,63.75,-68.52,24.8,18.34
19,Bathsheba,75,BB,1575143427,70,13.22,-59.52,84.2,8.05
20,Atuona,67,PF,1575143427,73,-9.8,-139.03,79.09,13.78
21,Yulara,0,AU,1575143427,44,-25.24,130.99,59,5.82
22,Bluff,0,AU,1575143427,67,-23.58,149.07,73.44,5.26
23,Alofi,100,NU,1575143427,94,-19.06,-169.92,71.6,1.12
24,Galle,0,GN,1575143427,52,10.08,-12.83,73.15,0.51
25,Lebu,40,ET,1575143427,71,8.96,38.73,57.2,11.41
26,Puerto Ayora,20,EC,1575143427,61,-0.74,-90.35,80.6,13.87
27,Hithadhoo,100,MV,1575143427,76,-0.6,73.08,81.84,8.77
28,Mataura,100,NZ,1575143428,81,-46.19,168.86,55.99,4
29,Maumere,100,ID,1575143428,71,-8.63,122.22,77.5,3.76
31,Hede,2,SE,1575143428,85,60.45,15.49,23,12.75
32,Rikitea,56,PF,1575143428,74,-23.12,-134.97,78.04,5.41
33,Mandalgovi,71,MN,1575143428,83,45.76,106.27,5.52,18.32
35,Ilulissat,40,GL,1575143428,53,69.22,-51.1,23,20.8
36,Chokurdakh,76,RU,1575143428,100,70.62,147.9,-25.15,2.93
37,Buala,46,SB,1575143428,77,-8.15,159.59,82.33,4.29
38,Kapaa,75,US,1575143428,74,22.08,-159.32,78.8,20.8
39,Faya,59,SA,1575143428,49,18.39,42.45,59,8.05
40,Barrow,0,AR,1575143428,28,-38.31,-60.23,64.53,18.54
41,San Pedro de Macoris,75,DO,1575143428,58,18.46,-69.3,84.2,11.41
42,Axim,0,GH,1575143428,88,4.87,-2.24,78.24,2.42
43,Alta Floresta,40,BR,1575143428,47,-9.87,-56.08,95,2.24
44,Geelong,90,AU,1575143184,76,-38.15,144.36,55,17.22
45,Luebo,100,CD,1575143429,86,-5.35,21.42,72.93,0.54
46,Chachapoyas,100,PE,1575143429,90,-6.23,-77.87,63.79,3.91
49,Thompson,75,CA,1575143429,84,55.74,-97.86,3.2,1.97
50,Salalah,1,OM,1575143429,36,17.01,54.1,78.8,9.17
51,Jalcocotan,40,MX,1575143429,48,21.48,-105.1,84.2,5.19
52,Ushuaia,75,AR,1575143429,70,-54.81,-68.31,48.2,24.16
53,Tabou,24,CI,1575143429,89,4.42,-7.36,76.75,2.64
54,Ribeira Grande,75,PT,1575143429,88,38.52,-28.7,68,10.29
55,Kaitangata,100,NZ,1575143429,99,-46.28,169.85,52,8.99
56,Port Alfred,99,ZA,1575143429,80,-33.59,26.89,64.99,1.01
57,Paamiut,100,GL,1575143429,74,61.99,-49.67,37.92,9.31
58,Vestmannaeyjar,100,IS,1575143429,78,63.44,-20.27,42.76,5.48
59,Tasiilaq,75,GL,1575143429,57,65.61,-37.64,21.2,2.24
60,Kaoma,92,ZM,1575143429,87,-14.8,24.8,66.97,1.9
61,Twin Falls,1,US,1575143430,68,42.57,-114.46,26.6,5.82
62,Souillac,48,FR,1575143430,93,45.6,-0.6,50,13.87
63,Butaritari,55,KI,1575143430,72,3.07,172.79,83.3,3.71
64,Coari,53,BR,1575143430,57,-4.09,-63.14,91.99,1.23
65,Ramhormoz,1,IR,1575143430,60,31.28,49.6,62.49,1.9
67,Nome,90,US,1575143430,78,30.04,-94.42,80.6,16.11
68,Port Hardy,5,CA,1575143430,64,50.7,-127.42,33.8,3.36
69,Codajas,78,BR,1575143430,54,-3.84,-62.06,92.07,1.83
70,Sfantu Gheorghe,90,RO,1575143430,100,44.65,26.83,41,17.22
71,Hobart,75,AU,1575143339,66,-42.88,147.33,50,6.93
72,Yen Bai,100,VN,1575143430,91,21.7,104.87,67.08,2.13
73,Saint-Philippe,90,CA,1575143430,62,45.36,-73.48,26.01,6.93
74,New Iberia,90,US,1575143430,57,30,-91.82,82.4,19.46
75,Dunkwa,0,GH,1575143430,85,5.97,-1.78,77.18,3
76,Sussex,75,CA,1575143224,58,45.72,-65.51,28,19.46
78,Mar del Plata,100,AR,1575143431,29,-46.43,-67.52,61.88,12.33
79,Bambous Virieux,40,MU,1575143431,73,-20.34,57.76,77,11.41
80,Humboldt,0,CA,1575143431,94,52.21,-105.12,7.88,4.74
81,Najran,58,SA,1575143431,42,17.54,44.22,62.6,2.19
82,Camacha,40,PT,1575143431,77,33.08,-16.33,68,8.05
83,Norman Wells,90,CA,1575143431,92,65.28,-126.83,21.2,13.87
84,Yerbogachen,0,RU,1575143431,95,61.28,108.01,-22.72,5.91
86,Herat,0,AF,1575143431,65,34.35,62.22,41,4.72
87,Nishihara,75,JP,1575143431,65,35.74,139.53,46,9.17
88,Comodoro Rivadavia,75,AR,1575143431,39,-45.87,-67.48,62.6,6.93
89,Abu Samrah,100,SY,1575143431,80,35.3,37.18,59.02,3
90,Verkhnevilyuysk,100,RU,1575143431,98,63.45,120.31,-4,3.94
91,Bredasdorp,55,ZA,1575143431,67,-34.53,20.04,62.6,3.36
93,Arraial do Cabo,40,BR,1575143431,57,-22.97,-42.02,80.6,13.87
94,Menongue,0,AO,1575143432,95,-14.66,17.68,61.97,3.29
95,Bayir,75,TR,1575143432,93,37.27,28.22,57.2,1.12
96,Saldanha,0,PT,1575143432,91,41.42,-6.55,43.99,7.54
97,Jerantut,98,MY,1575143432,98,3.94,102.37,71.11,2.37
98,Georgetown,75,GY,1575143395,83,6.8,-58.16,86,9.17
99,Ancud,75,CL,1575143432,76,-41.87,-73.83,55.4,6.93
100,Voyvozh,100,RU,1575143432,90,62.89,54.96,27.37,11.77
101,Vaini,100,IN,1575143432,80,15.34,74.49,69.82,6.53
102,Shishou,100,CN,1575143432,82,29.72,112.42,41.47,6.64
103,Hermanus,68,ZA,1575143432,82,-34.42,19.24,63,15.7
104,Geraldton,75,CA,1575143432,92,49.72,-86.95,14,10.29
105,Kodiak,1,US,1575143432,58,39.95,-94.76,57,21.92
106,Tura,4,RU,1575143403,97,64.27,100.22,-29.31,2.21
107,Loralai,0,PK,1575143432,45,30.37,68.6,43.61,2.04
108,Torbay,90,CA,1575143432,100,47.66,-52.73,43,2.24
110,Meulaboh,100,ID,1575143432,78,4.14,96.13,81.32,2.55
111,Sinop,87,TR,1575143164,70,42.03,35.15,57.2,16.93
112,Upernavik,100,GL,1575143432,66,72.79,-56.15,20.66,12.44
114,Maragogi,24,BR,1575143433,77,-9.01,-35.22,80.38,16.04
115,Aksu,0,KZ,1575143433,91,52.04,76.93,-4,4.47
116,Tiksi,50,RU,1575143433,95,71.64,128.87,-24.97,2.46
117,Praia,75,BR,1575143433,61,-20.25,-43.81,80.6,6.93
118,San Patricio,100,PY,1575143433,88,-26.98,-56.83,71.73,5.19
119,Keti Bandar,0,PK,1575143433,33,24.14,67.45,67.84,12.73
120,Porto Novo,40,BR,1575143433,40,-23.68,-45.44,89.6,2.24
121,Lata,0,IN,1575143433,19,30.78,78.62,15.62,4.14
122,Esperance,90,AU,1575143433,76,-33.86,121.89,53.6,5.82
123,Port Elizabeth,90,US,1575143433,41,39.31,-74.98,46.4,2.84
124,Avarua,100,CK,1575143433,74,-21.21,-159.78,78.8,3.36
125,Atasu,0,KZ,1575143433,55,48.68,71.64,14.2,8.37
126,Kuusamo,8,FI,1575143271,92,65.96,29.19,6.8,3.36
127,Sainte-Maxime,100,FR,1575143433,87,43.31,6.64,55.99,3.36
128,Pacific Grove,90,US,1575143221,81,36.62,-121.92,50,4.7
129,Puerto El Triunfo,100,SV,1575143434,52,13.27,-88.55,89.6,9.17
131,Muros,75,ES,1575143434,100,42.77,-9.06,57,3.36
133,Kudahuvadhoo,100,MV,1575143434,79,2.67,72.89,81.79,10.89
134,Luderitz,0,NA,1575143434,60,-26.65,15.16,68,16.11
135,Vuktyl,99,RU,1575143434,91,63.86,57.31,23.4,13.85
137,Saskylakh,6,RU,1575143434,93,71.97,114.09,-32.49,8.05
139,Havre-Saint-Pierre,90,CA,1575143434,58,50.23,-63.6,26.6,24.16
140,Tuktoyaktuk,90,CA,1575143434,92,69.44,-133.03,6.8,4.7
141,Gimli,23,CA,1575143434,86,50.63,-96.99,30,10
142,Udachnyy,100,RU,1575143435,96,66.42,112.4,-27.31,8.81
143,Deputatskiy,99,RU,1575143435,99,69.3,139.9,-13.61,1.48
144,San Jose,0,HN,1575143251,46,14.25,-87.96,78.6,3.69
145,Lahaina,75,US,1575143435,69,20.87,-156.68,80.6,16.11
148,Klimovo,0,RU,1575143435,83,52.38,32.2,26.51,8.08
149,Zhezkazgan,0,KZ,1575143435,71,47.8,67.71,11.66,10.76
150,Porto Belo,59,BR,1575143435,69,-27.15,-48.54,86,12.75
151,Petropavlovsk-Kamchatskiy,65,RU,1575143435,78,53.05,158.65,10.4,6.71
152,Lorengau,62,PG,1575143435,63,-2.02,147.27,83.25,1.07
153,Natal,20,BR,1575143436,58,-5.81,-35.21,84.2,13.87
154,Saint-Augustin,20,CA,1575143436,57,45.63,-73.98,26.01,4.7
156,Ranong,100,TH,1575143436,77,9.96,98.62,81.39,7.43
157,Aklavik,90,CA,1575143436,85,68.22,-135.01,14,4.7
159,Northam,0,AU,1575143436,48,-31.65,116.67,60.8,14.99
160,Harlau,20,RO,1575143436,74,47.43,26.9,37.4,8.05
161,Santa Luzia,75,BR,1575143436,61,-19.77,-43.85,80.6,6.93
162,Aleppo,100,SY,1575143436,77,36.2,37.17,61.5,1.68
163,Clyde River,90,CA,1575143436,92,70.47,-68.59,23,28.86
164,Naze,40,NG,1575143436,83,5.43,7.07,82.4,4.7
165,Hastings,0,NZ,1575143338,71,-39.64,176.84,65.62,11.83
166,Guarapari,75,BR,1575143437,88,-20.67,-40.5,78.01,8.05
167,Hovd,90,NO,1575143437,77,63.83,10.7,37,13.87
168,Kamenka,8,MD,1575143437,81,48.03,28.7,35.01,9.53
169,Talaya,40,RU,1575143437,78,55.79,84.89,14,17.9
170,Richards Bay,100,ZA,1575143437,84,-28.77,32.06,74.66,27.98
172,Komsomolskiy,100,RU,1575143437,95,67.55,63.78,24.49,10.65
173,Aranos,72,NA,1575143437,17,-24.14,19.11,84.07,16.93
174,Diffa,0,NE,1575143437,17,13.32,12.61,76.8,9.6
175,Mount Darwin,95,ZW,1575143437,46,-16.77,31.58,71.73,6.13
178,Zyryanka,100,RU,1575143437,81,65.73,150.89,-18.99,10.22
179,Mount Gambier,90,AU,1575143366,100,-37.83,140.78,50,11.41
180,Saint-Leu,75,RE,1575143438,73,-21.15,55.28,75.2,13.87
181,Butembo,75,CD,1575143438,95,0.12,29.29,61.48,2.98
182,Chuy,83,UY,1575143438,51,-33.69,-53.46,77.58,5.55
183,Carnarvon,71,ZA,1575143438,66,-30.97,22.13,59,16.42
185,Bestobe,4,KZ,1575143438,63,52.5,73.1,11.19,6.67
186,Nikolskoye,75,RU,1575143438,85,59.7,30.79,27,8.95
187,Alihe,71,CN,1575143438,95,50.57,123.73,-0.74,2.04
188,Senanga,100,ZM,1575143438,68,-16.1,23.3,75.47,3.49
189,Mahebourg,40,MU,1575143438,73,-20.41,57.7,77,11.41
190,Sur,0,OM,1575143438,57,22.57,59.53,69.58,3.36
191,Lusambo,100,CD,1575143438,95,-4.97,23.44,71.2,1.03
192,Hofn,0,IS,1575143438,71,64.25,-15.21,43.29,18.45
194,Los Llanos de Aridane,0,ES,1575143439,77,28.66,-17.92,73,9.17
195,Masaka,0,UG,1575143439,67,-0.34,31.75,74.5,1.77
196,Cherskiy,100,RU,1575143439,92,68.75,161.3,-3.1,16.78
197,Kijang,90,KR,1575143439,87,35.24,129.21,46.4,1.12
198,Anadyr,20,RU,1575143439,85,64.73,177.51,19.4,11.18
199,Saint George,40,GR,1575143439,71,39.45,22.34,55.4,5.82
200,Coihaique,20,CL,1575143439,44,-45.58,-72.07,57.2,8.05
201,Malinovoye Ozero,0,RU,1575143439,78,51.68,79.77,6.87,5.88
202,Fortuna,40,US,1575143439,86,40.6,-124.16,52,24.16
203,Derzhavinsk,0,KZ,1575143439,69,51.1,66.31,13.91,11.41
204,Nanyamba,20,MZ,1575143439,88,-10.69,39.81,77,1.88
205,Saginaw,90,US,1575143176,74,43.42,-83.95,36,12.75
206,Severo-Kurilsk,91,RU,1575143439,82,50.68,156.12,22.84,28.36
207,Faanui,5,PF,1575143439,80,-16.48,-151.75,81.88,13.2
209,Fairbanks,90,US,1575143440,100,64.84,-147.72,21,2.73
210,Dawei,60,MM,1575143440,72,14.07,98.19,80.56,12.91
211,Tucuman,0,PE,1575143440,37,-17.17,-70.89,66.51,11.79
212,Provideniya,100,RU,1575143440,96,64.42,-173.23,17.78,3.83
213,Dudinka,4,RU,1575143440,75,69.41,86.18,-14.8,8.95
214,Umm Lajj,0,SA,1575143440,61,25.02,37.27,72.63,3.85
215,Padang,91,ID,1575143440,96,-0.92,100.36,68.36,2.33
216,Iquitos,75,PE,1575143286,66,-3.75,-73.25,86,13.87
217,Lavrentiya,100,RU,1575143440,79,65.58,-170.99,20.07,8.79
218,Narsaq,75,GL,1575143440,79,60.91,-46.05,44.6,26.4
219,Lamu,98,CN,1575143440,87,35.77,102.37,12.61,0.85
220,Hilo,90,US,1575143440,94,19.71,-155.08,75,12.53
221,Zaozerne,0,UA,1575143440,80,51.37,23.94,31.42,10.29
222,Katsuura,20,JP,1575143440,86,33.93,134.5,39.2,10.29
223,Bintulu,75,MY,1575143440,100,3.17,113.03,77,4.7
224,Shibetsu,90,JP,1575143440,88,44.15,142.46,22.44,7.14
226,Dawson Creek,1,CA,1575143441,71,55.76,-120.23,10.4,2.08
227,East London,97,ZA,1575143441,66,-33.02,27.91,69.96,11.86
228,Ryotsu,20,JP,1575143441,72,38.08,138.43,33.8,1.12
229,Vao,98,EE,1575143441,92,59.1,26.19,28.89,6.58
230,Pomabamba,78,PE,1575143441,69,-8.82,-77.46,51.33,2.93
231,New Norfolk,75,AU,1575143441,66,-42.78,147.06,50,6.93
233,Rafai,21,CF,1575143441,65,4.95,23.92,71.01,1.66
234,Yamnytsya,75,UA,1575143441,84,48.99,24.71,32,6.71
235,Hualmay,0,PE,1575143441,56,-11.1,-77.61,73.74,7.99
236,Kayes,0,ML,1575143441,14,14.44,-11.44,84.09,8.63
237,Lincoln,40,GB,1575143441,100,53.23,-0.54,37.4,5.82
238,Bandarbeyla,100,SO,1575143441,73,9.49,50.81,78.93,29.01
239,Saeby,0,DK,1575143441,90,57.33,10.52,33.01,2.44
242,Usakos,0,NA,1575143442,33,-22,15.59,69.82,0.56
244,Farah,0,AF,1575143442,32,32.37,62.11,50.32,1.9
245,Zabol,0,IR,1575143442,56,31.03,61.49,44.6,9.17
246,Ashtian,0,IR,1575143442,69,34.52,50,39.24,10.25
247,San Lorenzo,100,HN,1575143442,45,13.43,-87.45,90.93,3
248,Onguday,0,RU,1575143442,77,50.75,86.14,3.97,0.27
249,Jiaonan,90,CN,1575143442,93,35.88,119.98,37.99,8.95
250,Nelson Bay,90,AU,1575143442,82,-32.72,152.14,66.2,8.05
251,Kella,0,DE,1575143442,91,51.23,10.08,37.4,4.7
252,Jizan,20,SA,1575143442,78,16.89,42.56,80.6,3.36
254,Raudeberg,100,NO,1575143443,68,61.99,5.14,34,3.36
255,Sabang,90,PH,1575143443,90,13.8,121.11,68.99,6.67
256,Newton,0,US,1575143443,29,42.34,-71.21,39,16.11
259,Pala,89,TD,1575143443,22,9.37,14.91,78.51,4.16
260,Saint-Pierre,100,FR,1575143443,93,48.95,4.24,39.2,10.29
261,Shimoda,100,JP,1575143443,95,34.7,138.93,43,3
263,Saint-Georges,100,CA,1575143355,69,46.12,-70.67,17.01,4
264,Codrington,66,AU,1575143443,88,-28.95,153.24,73.4,5.82
265,Dikson,0,RU,1575143443,90,73.51,80.55,-15.74,4.47
267,Vannes,90,FR,1575143443,100,47.66,-2.76,46.4,9.17
268,Laguna,40,BZ,1575143443,78,16.17,-88.94,80.6,6.93
269,Beringovskiy,100,RU,1575143443,68,63.05,179.32,23.41,5.68
270,Timbuktu,0,ML,1575143443,12,16.77,-3.01,76.46,11.5
271,Atar,67,MR,1575143444,19,20.52,-13.05,79.25,5.7
272,Jalu,0,LY,1575143444,49,29.03,21.55,59.34,5.21
273,Tsiroanomandidy,90,MG,1575143444,67,-18.77,46.05,73.99,4.21
274,Touros,20,BR,1575143444,58,-5.2,-35.46,84.2,13.87
275,Zhenlai,0,CN,1575143444,69,45.84,123.2,9.64,6.06
276,Inhambane,40,MZ,1575143444,78,-23.87,35.38,78.8,9.17
277,Kiruna,67,SE,1575143444,61,67.86,20.23,17.6,11.41
278,George Town,20,MY,1575143444,88,5.42,100.33,78.8,3.36
280,Zhigansk,100,RU,1575143444,96,66.77,123.37,-17.27,9.91
281,Kruisfontein,75,ZA,1575143444,83,-34,24.73,57.38,4.72
282,Bhanpuri,90,IN,1575143444,63,21.1,80.92,66.04,3.8
283,Saverne,100,FR,1575143444,80,48.74,7.36,37,6.93
284,Half Moon Bay,90,US,1575143444,87,37.46,-122.43,50,16.11
285,Ribeira Brava,20,PT,1575143445,64,32.65,-17.07,68,9.17
286,Darnah,13,LY,1575143445,71,32.77,22.64,67.78,15.12
287,San Cristobal,0,HN,1575143445,40,14.68,-86.92,82.33,3.33
288,Mandeville,75,US,1575143445,54,30.36,-90.07,82.4,17.22
289,Port-Gentil,40,GA,1575143445,88,-0.72,8.78,78.8,6.93
291,Sydney,75,AU,1575143146,63,-33.85,151.22,64.4,10.29
292,Krasnyy Oktyabr,100,RU,1575143445,95,56.12,38.88,32.02,7.07
293,Tecoanapa,75,MX,1575143445,66,16.99,-99.26,87.8,6.93
294,Santo Antonio do Ica,38,BR,1575143206,66,-3.1,-67.94,88.38,1.99
295,Portland,1,US,1575143011,36,43.66,-70.25,33.01,14.99
296,Margate,75,AU,1575143445,66,-43.03,147.26,50,6.93
297,Bolgatanga,0,GH,1575143445,13,10.79,-0.85,82.58,8.84
299,Siguiri,0,GN,1575143446,17,11.42,-9.17,78.22,5.19
301,Hasaki,75,JP,1575143446,93,35.73,140.83,39.2,6.93
302,Jucas,4,BR,1575143446,19,-6.53,-39.53,89.17,5.06
303,Nova Olimpia,100,BR,1575143446,89,-14.8,-57.29,77.52,2.48
304,Del Monte,75,PH,1575143446,69,14.64,121.01,78.8,1.12
305,Dolores,100,UY,1575143446,41,-33.53,-58.22,82,8.01
306,Lasa,20,CY,1575143446,82,34.92,32.53,64.4,5.82
307,Lompoc,20,US,1575143446,81,34.64,-120.46,53.6,9.17
308,Vila Franca do Campo,40,PT,1575143446,88,37.72,-25.43,66.2,5.82
309,Ucluelet,5,CA,1575143150,64,48.94,-125.55,41,4.7
310,Ostrovnoy,100,RU,1575143446,95,68.05,39.51,18.27,11.27
311,Necochea,0,AR,1575143446,60,-38.55,-58.74,66,13
312,Mala,7,PE,1575143447,49,-12.66,-76.63,72.75,8.84
313,Lundazi,98,ZM,1575143447,83,-12.29,33.17,68.56,8.34
314,Kahului,40,US,1575143447,57,20.89,-156.47,80.6,21.92
315,Cervo,75,BR,1575143447,94,-22.19,-46.24,71.6,3.76
316,Nanortalik,100,GL,1575143447,76,60.14,-45.24,41.36,41.16
318,Beloye,11,RU,1575143447,93,45.05,39.65,45,4.47
319,Samut Songkhram,11,TH,1575143447,82,13.41,100,75.99,6.53
320,Evensk,100,RU,1575143447,73,61.92,159.24,-8.39,15.57
321,Cambridge,90,CA,1575143447,74,43.39,-80.31,30.99,11.41
322,Fukue,20,JP,1575143447,75,35.03,136.69,44.01,5.82
323,Pevek,100,RU,1575143447,98,69.7,170.27,0.32,6.73
325,Muret,75,FR,1575143447,87,43.46,1.33,50,4.7
326,Simao,0,CN,1575143447,96,22.76,100.79,51.46,2.62
327,Roebourne,32,AU,1575143447,25,-20.77,117.15,86.11,20.15
328,Tommot,100,RU,1575143447,98,58.97,126.27,-3.51,3.56
329,Rocha,63,UY,1575143366,51,-34.48,-54.34,71.96,6.4
331,Aripuana,75,BR,1575143448,55,-9.17,-60.63,91.67,2.15
332,Zambezi,92,ZM,1575143448,79,-13.55,23.12,69.71,3.24
333,Berlevag,6,NO,1575143448,77,70.86,29.09,28.36,31
334,Washougal,1,US,1575143448,47,45.58,-122.35,45,20.8
335,Victoria,75,BN,1575143448,88,5.28,115.24,80.6,2.24
336,Haicheng,100,CN,1575143448,61,40.85,122.74,24.51,3.94
337,Pokosnoye,100,RU,1575143448,82,55.53,101.05,2.08,7.34
338,Cidreira,65,BR,1575143448,76,-30.17,-50.22,76.01,5.7
339,Okha,49,RU,1575143448,93,53.59,142.95,9.88,14.76
340,Umm Bab,0,QA,1575143448,71,25.21,50.81,69.15,4.03
341,Tutoia,20,BR,1575143448,66,-2.76,-42.27,87.8,25.28
342,Maldonado,1,UY,1575143448,64,-34.91,-54.96,67.66,9.57
343,Sibolga,99,ID,1575143448,97,1.74,98.78,71.51,2.24
344,Kalabo,99,ZM,1575143448,89,-15,22.67,69.82,4.36
345,Kamina,46,CD,1575143449,97,-8.74,25,66,3.2
346,Touba,100,SN,1575143449,15,14.86,-15.88,84.74,9.48
347,Sioux Lookout,75,CA,1575143449,79,50.1,-91.92,19.4,14.99
348,Constitucion,5,MX,1575143449,25,23.99,-104.67,75.2,10.29
349,Aranyosapati,0,HU,1575143449,60,48.21,22.26,34,4
350,Acapulco,75,MX,1575143449,66,16.86,-99.88,87.8,6.93
351,Zverinogolovskoye,0,RU,1575143449,76,54.46,64.85,11.48,9.08
352,Taraclia,100,UA,1575143449,71,45.9,28.68,40.41,12.95
353,Romanovo,100,RU,1575143449,82,56.49,40.39,33.39,4.56
354,Klaksvik,100,FO,1575143449,86,62.23,-6.59,39.2,14.99
355,Peniche,20,PT,1575143449,87,39.36,-9.38,57.2,3.36
356,Erzin,75,TR,1575143449,100,36.95,36.2,62.01,1.92
357,Cairns,90,AU,1575143437,88,-16.92,145.77,73.99,2.24
358,Vinh,96,VN,1575143449,95,18.67,105.69,69.48,2.06
359,Namibe,92,AO,1575143449,84,-15.19,12.15,72.05,10.47
360,Morrope,0,PE,1575143449,29,-6.54,-80.02,66.2,14.99
361,Dunedin,100,NZ,1575143449,97,-45.87,170.5,54,8.3
362,Kommunisticheskiy,42,RU,1575143450,79,61.68,64.48,20.01,11.32
363,Puerto Madero,0,AR,1575143450,21,-34.61,-58.36,82.99,11.41
364,Jiazi,40,CN,1575143450,93,19.61,110.49,64.4,3.36
365,Nouakchott,67,MR,1575143450,83,18.08,-15.98,69.8,13.87
366,Antalaha,29,MG,1575143450,80,-14.9,50.28,79.45,15.95
367,Mocuba,0,MZ,1575143450,82,-16.84,36.99,74.98,2.59
368,Mersing,92,MY,1575143450,77,2.43,103.84,83.07,10.6
369,Senj,40,HR,1575143450,70,45.35,13.91,50,6.93
370,Eyl,100,SO,1575143450,62,7.98,49.82,79.05,25.26
371,Tabuk,86,PH,1575143450,90,17.41,121.44,66.69,5.01
372,Yorkton,90,CA,1575143450,100,51.21,-102.46,17.6,13.87
374,Jiexiu,100,CN,1575143450,48,37.02,111.92,25.07,7.63
377,Ilebo,69,CD,1575143450,85,-4.33,20.59,72.93,1.01
378,Ballina,40,IE,1575143450,93,54.11,-9.15,44.01,6.93
379,Esil,0,KZ,1575143450,73,51.96,66.41,12.99,12.46
380,Oktyabrskiy,75,RU,1575143451,93,55.61,37.97,37,6.71
381,Kaeo,0,NZ,1575143451,100,-35.1,173.78,68,10.74
384,Nouadhibou,75,MR,1575143451,88,20.93,-17.03,64.4,4.7
385,Pierre,90,US,1575143451,92,44.37,-100.35,30.99,28.86
386,Choconta,80,CO,1575143451,85,5.14,-73.69,62.89,5.32
387,General Roca,0,AR,1575143451,15,-39.03,-67.58,73.4,12.75
388,Slave Lake,1,CA,1575143451,78,55.28,-114.77,14,12.75
389,Juneau,90,US,1575143233,80,58.3,-134.42,37,10.29
390,Zhuhai,0,CN,1575143451,76,40.71,112.04,-7.6,4.47
391,Greenville,90,US,1575143451,77,34.85,-82.4,69.01,2.68
392,Cayenne,20,GF,1575143451,66,4.94,-52.33,86,11.41
393,Kenai,90,US,1575143323,93,60.55,-151.26,39.2,8.05
394,Victor Harbor,90,AU,1575143451,82,-35.55,138.62,55.4,20.8
395,Lethem,62,GY,1575143451,45,3.38,-59.8,92.14,5.68
396,Ponta do Sol,100,BR,1575143451,90,-20.63,-46,72.91,2.33
397,Talnakh,20,RU,1575143451,75,69.49,88.39,-14.8,8.95
398,Ahipara,5,NZ,1575143451,100,-35.17,173.16,68,11.27
399,Marshall,1,US,1575143452,58,39.12,-93.2,64.99,14.99
401,Chunhuhub,8,MX,1575143452,54,19.59,-88.59,86.13,4.72
402,La Seyne-sur-Mer,100,FR,1575143452,93,43.1,5.88,60.01,2.24
404,Oksovskiy,100,RU,1575143452,90,62.61,39.91,25.45,8.99
405,Shenjiamen,100,CN,1575143452,93,29.96,122.3,60.66,13.31
406,Ulaanbaatar,20,MN,1575143452,75,47.92,106.92,-13,2.24
407,Sisimiut,0,GL,1575143452,69,66.94,-53.67,13.71,12.26
408,Chapais,40,CA,1575143452,77,49.78,-74.86,6.8,8.05
410,Taltal,0,CL,1575143452,67,-25.41,-70.49,63.23,3.8
412,Itarema,60,BR,1575143452,79,-2.92,-39.92,78.8,12.26
413,Kattivakkam,90,IN,1575143452,94,13.22,80.32,77,4.7
414,Longyearbyen,100,NO,1575143453,47,78.22,15.63,14,27.51
416,Pochutla,20,MX,1575143453,52,15.74,-96.47,91.4,10.27
417,Sroda Wielkopolska,90,PL,1575143453,95,52.23,17.28,36,4.7
418,Yar-Sale,100,RU,1575143453,95,66.83,70.83,14.86,9.24
419,Cabo San Lucas,20,MX,1575143253,65,22.89,-109.91,82,2.24
420,Ibra,16,OM,1575143453,55,22.69,58.55,66.69,3.8
421,Pangody,98,RU,1575143453,96,65.85,74.49,21.78,8.59
422,Cap Malheureux,40,MU,1575143453,73,-19.98,57.61,77,11.41
423,Rome,3,IT,1575143172,81,41.89,12.48,54,5.82
424,Chute-aux-Outardes,75,CA,1575143309,57,49.12,-68.38,23,9.17
425,Saint Anthony,90,US,1575143453,85,43.97,-111.68,21.99,9.17
426,San Carlos de Bariloche,40,AR,1575143453,41,-41.13,-71.31,59,27.51
427,Pangai,0,TO,1575143453,73,-19.8,-174.35,77.56,10.87
428,Baykit,100,RU,1575143453,98,61.68,96.39,-14.24,1.61
429,Semirom,0,IR,1575143379,77,31.41,51.57,30.51,2.3
431,Barcelos,27,BR,1575143454,58,-0.97,-62.93,89.8,2.95
432,Ixtapa,40,MX,1575143454,55,20.71,-105.21,86,8.05
433,Port Macquarie,98,AU,1575143454,100,-31.43,152.91,68,8.05
434,Mecca,21,SA,1575143411,67,21.43,39.83,76.3,2.98
435,Wakkanai,100,JP,1575143454,67,45.41,141.67,41.07,28.43
437,Dawlatabad,10,AF,1575143454,42,36.41,64.91,49.21,3.31
439,Luwuk,100,ID,1575143454,76,-0.95,122.79,82.33,7.83
440,Isangel,80,VU,1575143454,60,-19.55,169.27,73.4,5.82
441,Le Port,100,FR,1575143454,69,42.87,1.37,50,5.99
442,Papara,75,BR,1575143454,66,-3.98,-38.73,86,16.11
443,Barra Patuca,59,HN,1575143454,65,15.8,-84.28,81.43,7.9
444,Mumford,1,GH,1575143454,87,5.26,-0.76,78.53,4.27
445,Shepsi,100,RU,1575143454,78,44.04,39.15,57.67,28.34
446,Nyimba,88,ZM,1575143454,87,-14.56,30.81,70.45,5.79
447,Springbok,46,ZA,1575143454,45,-29.67,17.88,54.52,6.38
448,Glen Allen,90,US,1575143177,61,37.67,-77.51,46,3.53
449,Hervey Bay,40,AU,1575143455,88,-25.3,152.85,73,11.68
450,Lakhdenpokhya,87,RU,1575143455,75,61.52,30.2,25,9.13
451,Beaverlodge,20,CA,1575143455,83,55.21,-119.43,-4,2.24
452,Araouane,24,ML,1575143455,13,18.9,-3.53,71.92,8.7
453,Vanavara,0,RU,1575143455,96,60.35,102.28,-25.51,2.98
454,Mantua,20,IT,1575143455,100,45.16,10.79,48.99,4.7
455,Guerrero Negro,0,MX,1575143455,44,27.97,-114.04,63.1,9.64
456,Macas,40,EC,1575143455,48,-2.3,-78.12,84.2,5.82
457,Sobolevo,0,RU,1575143455,86,54.43,31.9,27.39,8.16
458,Umea,67,SE,1575143455,85,63.83,20.26,19.4,5.82
459,Digapahandi,100,IN,1575143455,87,19.37,84.57,67.55,2.04
461,Pavilosta,66,LV,1575143455,60,56.89,21.19,39.2,9.17
462,Romny,52,UA,1575143455,84,50.74,33.49,30.79,10.18
463,Athens,40,GR,1575143434,67,37.98,23.73,64.99,4.7
464,Maniitsoq,69,GL,1575143456,46,65.42,-52.9,24.84,6.64
465,Palmer,90,AU,1575143456,82,-34.85,139.16,57,20.8
466,Fengzhen,0,CN,1575143456,70,40.43,113.15,10.35,3.04
467,Altamira,40,BR,1575143456,55,-3.2,-52.21,87.93,2.19
468,Umm Kaddadah,12,SD,1575143456,16,13.6,26.69,69.64,11.86
469,Machico,20,PT,1575143456,64,32.7,-16.77,68,9.17
470,Tazovskiy,100,RU,1575143456,96,67.47,78.7,-3.14,15.52
471,Bud,40,NO,1575143456,80,62.91,6.91,33.8,11.41
472,Akaltara,34,IN,1575143456,59,22.02,82.43,64.76,7.25
473,Te Anau,100,NZ,1575143456,98,-45.41,167.72,51.12,3.53
474,Xining,100,CN,1575143456,94,36.62,101.77,14.76,1.19
475,Batagay-Alyta,100,RU,1575143456,98,67.8,130.41,-14.24,2.53
476,Airai,2,TL,1575143456,80,-8.93,125.41,66.09,2.59
477,Belaya Gora,0,RU,1575143456,90,68.54,146.19,-25.24,1.14
478,Yarada,11,IN,1575143456,75,17.65,83.27,79.61,10.87
479,Crateus,97,BR,1575143172,25,-5.18,-40.68,90.36,5.75
480,Vila Velha,75,BR,1575143457,66,-3.71,-38.6,86,16.11
481,Santa Isabel,40,MX,1575143457,50,32.63,-115.58,59,8.05
482,Paraiso,20,BR,1575143457,56,-0.03,-51.17,93.2,13.87
483,Kazachinskoye,100,RU,1575143457,94,57.69,93.28,11.55,7.47
484,Murgab,75,TM,1575143457,61,37.5,61.97,48.2,6.93
485,Dombarovskiy,100,RU,1575143457,74,50.76,59.54,19.36,14.72
486,Mossendjo,100,CG,1575143457,96,-2.95,12.72,72.75,1.66
487,Okhotsk,0,RU,1575143457,68,59.36,143.24,-8.43,19.44
489,Bonavista,100,CA,1575143457,87,48.65,-53.11,39,8.01
490,Lagoa,75,PT,1575143457,93,37.14,-8.45,62.01,10.29
491,Jinja,100,UG,1575143457,96,0.44,33.21,64.4,2.15
492,Casambalangan,81,PH,1575143457,76,18.38,122.13,76.98,16.46
494,Kalmunai,100,LK,1575143457,86,7.42,81.82,77.81,2.75
496,Sinnamary,10,GF,1575143458,82,5.38,-52.96,81.45,16.31
497,Atherton,90,AU,1575143458,88,-17.27,145.48,73.99,2.24
498,Labuhan,100,ID,1575143458,91,-2.54,115.51,74.41,1.59
499,Amelia,0,IT,1575143458,93,42.55,12.42,51.01,4.7
500,Hambantota,100,LK,1575143458,89,6.12,81.12,77.58,12.91
502,Cockburn Town,40,TC,1575143458,61,21.46,-71.14,82.4,9.17
503,Ugoofaaru,100,MV,1575143458,88,5.67,73,76.37,2.44
504,The Valley,75,AI,1575143238,74,18.22,-63.06,82.99,6.93
505,Dingzhou,100,CN,1575143458,100,38.51,115,30.2,2.24
506,Arauca,40,VE,1575143458,59,7.08,-70.76,91.4,5.82
507,Haapiti,20,PF,1575143459,70,-17.57,-149.87,86,17.22
508,La Ronge,90,CA,1575143459,78,55.1,-105.3,14,2.24
509,Gazanjyk,0,TM,1575143459,54,39.24,55.52,50.14,4.09
510,Saint-Joseph,100,FR,1575143459,87,43.56,6.97,53.6,3.36
511,Lardos,40,GR,1575143459,72,36.09,28.02,64.4,4.7
512,Curup,4,ID,1575143459,97,-3.47,102.53,66.69,2.59
513,Chicama,75,PE,1575143459,77,-7.84,-79.15,69.8,11.41
514,Corinto,40,CO,1575143459,46,3.17,-76.26,89.6,4.7
515,Filadelfia,22,PY,1575143459,31,-22.35,-60.04,100.29,11.7
516,Mananjary,91,MG,1575143459,82,-19.16,46.8,64.49,10.18
517,Rio Muerto,5,MX,1575143459,50,27.42,-110.23,75.2,6.93
518,Luang Prabang,33,LA,1575143459,98,19.89,102.14,58.48,0.45
519,Katangli,0,RU,1575143459,90,51.71,143.23,8.49,5.93
520,Conceicao do Araguaia,0,BR,1575143194,59,-8.26,-49.26,85.89,4.9
521,Egvekinot,100,RU,1575143460,94,66.32,-179.17,9.37,8.14
523,Quesnel,1,CA,1575143460,84,52.98,-122.49,6.8,4.47
524,Ginda,0,IN,1575143460,33,30.69,78.49,43,5.86
525,Revda,100,RU,1575143460,95,67.94,34.55,16.16,5.75
527,Vestmanna,100,FO,1575143460,86,62.16,-7.17,39.2,14.99
528,Armstrong,75,CA,1575143460,79,50.44,-119.19,25,9.17
529,Gondanglegi,93,ID,1575143460,91,-7.75,112.01,74.75,4.32
530,Pauini,68,BR,1575143460,66,-7.71,-67,86.99,3.24
531,Karratha,96,AU,1575143460,57,-20.74,116.85,84.07,11.48
532,Lukavica,0,BA,1575143460,86,44.76,18.19,34,1.12
533,Qaqortoq,75,GL,1575143460,83,60.72,-46.03,44.6,26.4
534,Isla Mujeres,75,MX,1575143461,58,21.23,-86.73,84.2,9.17
535,Leningradskiy,100,RU,1575143461,95,69.38,178.42,14.22,3.6
536,Kulunda,0,RU,1575143461,81,52.57,78.94,7.5,6.31
537,Teodoro Sampaio,67,BR,1575143461,60,-22.53,-52.17,86.36,3.13
538,Tuatapere,100,NZ,1575143461,81,-46.13,167.69,55.99,4
539,Mount Isa,75,AU,1575143461,53,-20.73,139.49,77,10.29
540,Makakilo City,1,US,1575143208,61,21.35,-158.09,81,8.05
541,Sitka,0,US,1575143461,40,37.17,-99.65,52,15.99
542,Kapit,100,MY,1575143461,99,2.02,112.94,72,1.01
543,Vila do Maio,75,CV,1575143461,69,15.13,-23.22,77,20.8
544,Dickinson,90,US,1575143282,92,46.88,-102.79,27,17.22
545,Leshukonskoye,100,RU,1575143461,93,64.9,45.76,31.05,12.77
547,College,90,US,1575143462,100,64.86,-147.8,21.2,3.09
548,Yuncheng,99,CN,1575143462,74,35.03,111,34.02,8.1
549,Qandala,64,SO,1575143462,61,11.47,49.87,74.68,2.24
550,Khatanga,100,RU,1575143462,96,71.98,102.47,-23.04,10.87
551,Carlisle,35,GB,1575143462,100,54.89,-2.94,37.99,4.7
552,Nidadavole,81,IN,1575143462,83,16.91,81.67,72.01,6.46
553,Orthez,100,FR,1575143462,100,43.49,-0.77,55,5.82
554,Shingu,0,JP,1575143462,69,33.72,135.99,52,6.46
555,Vavozh,100,RU,1575143462,92,56.77,51.93,22.42,9.71
556,Port Keats,99,AU,1575143462,79,-14.25,129.55,80.11,11.07
557,Riyadh,0,SA,1575143462,60,24.63,46.72,68,3.36
558,Santa Isabel do Rio Negro,71,BR,1575143463,63,-0.41,-65.02,87.04,3.22
559,Nautla,100,MX,1575143463,61,20.22,-96.78,82.83,3.18
560,Magan,0,OM,1575143463,64,24.42,56.58,73.4,4.7
562,Ippy,93,CF,1575143463,37,6.26,21.2,75,2.04
564,Nova Olinda do Norte,94,BR,1575143463,50,-3.89,-59.1,91.9,2.35
565,Belmonte,6,PT,1575143463,85,40.36,-7.35,51.01,6.29
566,Kununurra,61,AU,1575143463,74,-15.77,128.74,80.6,10.29
567,Puri,100,ID,1575143463,77,-7.54,112.45,76.8,3.78
568,Urucuca,0,BR,1575143463,74,-14.59,-39.28,84.2,9.17
570,Aswan,0,EG,1575143464,32,24.09,32.9,64.11,11.5
571,Awjilah,0,LY,1575143464,49,29.14,21.3,59.34,5.21
572,Leopold,90,US,1575143464,97,38.1,-86.58,51.8,8.05
573,Huilong,20,CN,1575143464,76,31.15,106.5,43.09,2.62
574,Meiganga,0,CM,1575143464,35,6.52,14.29,71.24,4.74
575,Dok Kham Tai,53,TH,1575143464,95,19.16,99.99,63.79,0.36
576,Ati,75,TD,1575143464,11,13.21,18.34,76.96,10.31
577,Key West,90,US,1575143464,92,47.93,-96.78,28.4,20.8
578,Akureyri,90,IS,1575143464,91,65.68,-18.09,35.6,16.11
579,Kasangulu,75,CD,1575143464,78,-4.59,15.17,80.6,11.41
580,Ambilobe,100,MG,1575143464,69,-13.19,49.05,79.07,14.45
581,Ahuimanu,40,US,1575143464,61,21.44,-157.84,81,13.87
582,Westport,1,US,1575143417,22,41.14,-73.36,45,13.87
583,Prince Rupert,1,CA,1575143465,42,54.32,-130.32,32,5.82
584,Inirida,56,CO,1575143465,93,3.87,-67.92,82.56,2.3
585,Miles City,90,US,1575143465,86,46.41,-105.84,26.6,20.8
586,San Quintin,63,PH,1575143465,82,17.54,120.52,65.34,5.77
587,Aitape,45,PG,1575143465,74,-3.15,142.36,83.41,7.9
588,Olinda,75,AU,1575143465,71,-37.84,145.39,55,9.17
589,Baglan,75,GB,1575143465,93,51.62,-3.81,43,17.22
590,Listvyagi,99,RU,1575143465,87,53.68,86.95,11.28,6.93
591,Benito Juarez,40,CU,1575143465,57,22.29,-79.63,80.6,11.41
592,Itea,33,GR,1575143465,61,38.43,22.42,62.01,3.69
593,Fremont,90,US,1575143465,87,37.55,-121.99,50,16.11
594,Thiruvananthapuram,75,IN,1575143356,94,8.48,76.92,78.8,4.7
595,Juegang,100,CN,1575143465,63,32.31,121.18,55.99,4
596,Hof,0,DE,1575143465,92,50.32,11.92,37,1.59
597,Adrar,0,DZ,1575143466,22,27.87,-0.29,66.2,11.41
598,Normandin,40,CA,1575143466,66,48.84,-72.53,15.8,13.87
600,Bogande,42,BF,1575143466,13,12.97,-0.14,78.46,7.36
601,Sao Filipe,84,CV,1575143466,73,14.9,-24.5,74.3,17.65
602,Kurchum,0,KZ,1575143466,74,48.57,83.65,3.36,2.77
603,Bilibino,100,RU,1575143466,91,68.06,166.44,-2.11,4.07
605,Chimore,93,BO,1575143466,86,-16.98,-65.13,82.51,2.64
606,Ygatimi,0,PY,1575143466,49,-24.08,-55.5,91.09,5.14
608,Miramar,40,CR,1575143466,54,10.09,-84.73,80.6,14.99
609,Port Lincoln,100,AU,1575143467,79,-34.72,135.86,58.62,17.98
610,Manhattan,1,US,1575143319,37,39.18,-96.57,57.2,20.8
611,Buraydah,0,SA,1575143467,72,26.33,43.97,64.4,5.82
613,Malko Tarnovo,40,TR,1575143467,75,41.98,27.52,46.4,20.8
614,Beisfjord,90,NO,1575143467,85,68.38,17.6,23,19.46
615,Kendari,100,ID,1575143467,90,-3.99,122.52,73.54,1.79
616,Pestretsy,90,RU,1575143467,85,55.75,49.66,24.8,11.18
